{
"type": "FeatureCollection",
"name": "Union Artillery Batteries",
"crs": { "type": "name", "properties": { "name": "urn:ogc:def:crs:OGC:1.3:CRS84" } },
"features": [
{ "type": "Feature", "properties": { "Name": "Smith", "description": null, "IMAGE": "12lb  Napoleon.jpg", "LONG": "-77.425106", "Field": "Value", "LAT": "38.287185", "ICON": "Union.bmp" }, "geometry": { "type": "Point", "coordinates": [ -77.425106, 38.287185 ] } },
{ "type": "Feature", "properties": { "Name": "Graham", "description": null, "IMAGE": "12lb  Napoleon.jpg", "LONG": "-77.460787", "Field": "Value", "LAT": "38.314701", "ICON": "Union.bmp" }, "geometry": { "type": "Point", "coordinates": [ -77.460787, 38.314701 ] } },
{ "type": "Feature", "properties": { "Name": "Hazard", "description": null, "IMAGE": "12lb  Napoleon.jpg", "LONG": "-77.460156", "Field": "Value", "LAT": "38.313517", "ICON": "Union.bmp" }, "geometry": { "type": "Point", "coordinates": [ -77.460156, 38.313517 ] } },
{ "type": "Feature", "properties": { "Name": "Frankx", "description": null, "IMAGE": "12lb  Napoleon.jpg", "LONG": "-77.459427", "Field": "Value", "LAT": "38.312447", "ICON": "Union.bmp" }, "geometry": { "type": "Point", "coordinates": [ -77.459427, 38.312447 ] } },
{ "type": "Feature", "properties": { "Name": "Gilliss", "description": null, "IMAGE": "12lb  Napoleon.jpg", "LONG": "-77.458018", "Field": "Value", "LAT": "38.311302", "ICON": "Union.bmp" }, "geometry": { "type": "Point", "coordinates": [ -77.458018, 38.311302 ] } },
{ "type": "Feature", "properties": { "Name": "Kirby", "description": null, "IMAGE": "24lb Howitzer.jpg", "LONG": "-77.456997", "Field": "Value", "LAT": "38.310614", "ICON": "Union.bmp" }, "geometry": { "type": "Point", "coordinates": [ -77.456997, 38.310614 ] } },
{ "type": "Feature", "properties": { "Name": "Miller", "description": null, "IMAGE": "12lb  Napoleon.jpg", "LONG": "-77.454762", "Field": "Value", "LAT": "38.307864", "ICON": "Union.bmp" }, "geometry": { "type": "Point", "coordinates": [ -77.454762, 38.307864 ] } },
{ "type": "Feature", "properties": { "Name": "Kinzie", "description": null, "IMAGE": "12lb  Napoleon.jpg", "LONG": "-77.453839", "Field": "Value", "LAT": "38.306222", "ICON": "Union.bmp" }, "geometry": { "type": "Point", "coordinates": [ -77.453839, 38.306222 ] } },
{ "type": "Feature", "properties": { "Name": "Hazlett", "description": null, "IMAGE": "12lb  Napoleon.jpg", "LONG": "-77.461516", "Field": "Value", "LAT": "38.318062", "ICON": "Union.bmp" }, "geometry": { "type": "Point", "coordinates": [ -77.461516, 38.318062 ] } },
{ "type": "Feature", "properties": { "Name": "Durell", "description": null, "IMAGE": "12lb  Napoleon.jpg", "LONG": "-77.463654", "Field": "Value", "LAT": "38.320965", "ICON": "Union.bmp" }, "geometry": { "type": "Point", "coordinates": [ -77.463654, 38.320965 ] } },
{ "type": "Feature", "properties": { "Name": "Turnbull", "description": null, "IMAGE": "12lb  Napoleon.jpg", "LONG": "-77.451118", "Field": "Value", "LAT": "38.301447", "ICON": "Union.bmp" }, "geometry": { "type": "Point", "coordinates": [ -77.451118, 38.301447 ] } },
{ "type": "Feature", "properties": { "Name": "Kusserow", "description": null, "IMAGE": "24lb Howitzer.jpg", "LONG": "-77.449612", "Field": "Value", "LAT": "38.29927", "ICON": "Union.bmp" }, "geometry": { "type": "Point", "coordinates": [ -77.449612, 38.29927 ] } },
{ "type": "Feature", "properties": { "Name": "Waterman", "description": null, "IMAGE": "10lb Parrott Rifle.jpg", "LONG": "-77.448835", "Field": "Value", "LAT": "38.297017", "ICON": "Union.bmp" }, "geometry": { "type": "Point", "coordinates": [ -77.448835, 38.297017 ] } },
{ "type": "Feature", "properties": { "Name": "Diederichs", "description": null, "IMAGE": "20lb Parrott Rifle.jpg", "LONG": "-77.445336", "Field": "Value", "LAT": "38.294343", "ICON": "Union.bmp" }, "geometry": { "type": "Point", "coordinates": [ -77.445336, 38.294343 ] } },
{ "type": "Feature", "properties": { "Name": "Trumbull", "description": null, "IMAGE": "20lb Parrott Rifle.jpg", "LONG": "-77.443976", "Field": "Value", "LAT": "38.292472", "ICON": "Union.bmp" }, "geometry": { "type": "Point", "coordinates": [ -77.443976, 38.292472 ] } },
{ "type": "Feature", "properties": { "Name": "Voegelee", "description": null, "IMAGE": "20lb Parrott Rifle.jpg", "LONG": "-77.441935", "Field": "Value", "LAT": "38.291364", "ICON": "Union.bmp" }, "geometry": { "type": "Point", "coordinates": [ -77.441935, 38.291364 ] } },
{ "type": "Feature", "properties": { "Name": "Harn", "description": null, "IMAGE": "20lb Parrott Rifle.jpg", "LONG": "-77.440769", "Field": "Value", "LAT": "38.290562", "ICON": "Union.bmp" }, "geometry": { "type": "Point", "coordinates": [ -77.440769, 38.290562 ] } },
{ "type": "Feature", "properties": { "Name": "McCarthy", "description": null, "IMAGE": "20lb Parrott Rifle.jpg", "LONG": "-77.439166", "Field": "Value", "LAT": "38.289416", "ICON": "Union.bmp" }, "geometry": { "type": "Point", "coordinates": [ -77.439166, 38.289416 ] } },
{ "type": "Feature", "properties": { "Name": "Leppien", "description": null, "IMAGE": "20lb Parrott Rifle.jpg", "LONG": "-77.435181", "Field": "Value", "LAT": "38.287354", "ICON": "Union.bmp" }, "geometry": { "type": "Point", "coordinates": [ -77.435181, 38.287354 ] } },
{ "type": "Feature", "properties": { "Name": "Walcott", "description": null, "IMAGE": "20lb Parrott Rifle.jpg", "LONG": "-77.432606", "Field": "Value", "LAT": "38.285673", "ICON": "Union.bmp" }, "geometry": { "type": "Point", "coordinates": [ -77.432606, 38.285673 ] } },
{ "type": "Feature", "properties": { "Name": "Wever", "description": null, "IMAGE": "20lb Parrott Rifle.jpg", "LONG": "-77.430371", "Field": "Value", "LAT": "38.283954", "ICON": "Union.bmp" }, "geometry": { "type": "Point", "coordinates": [ -77.430371, 38.283954 ] } },
{ "type": "Feature", "properties": { "Name": "Taft", "description": null, "IMAGE": "20lb Parrott Rifle.jpg", "LONG": "-77.428525", "Field": "Value", "LAT": "38.282159", "ICON": "Union.bmp" }, "geometry": { "type": "Point", "coordinates": [ -77.428525, 38.282159 ] } },
{ "type": "Feature", "properties": { "Name": "Reynolds", "description": null, "IMAGE": "20lb Parrott Rifle.jpg", "LONG": "-77.422548", "Field": "Value", "LAT": "38.275743", "ICON": "Union.bmp" }, "geometry": { "type": "Point", "coordinates": [ -77.422548, 38.275743 ] } },
{ "type": "Feature", "properties": { "Name": "Cowan", "description": null, "IMAGE": "20lb Parrott Rifle.jpg", "LONG": "-77.421431", "Field": "Value", "LAT": "38.274215", "ICON": "Union.bmp" }, "geometry": { "type": "Point", "coordinates": [ -77.421431, 38.274215 ] } },
{ "type": "Feature", "properties": { "Name": "Ricketts", "description": null, "IMAGE": "20lb Parrott Rifle.jpg", "LONG": "-77.419973", "Field": "Value", "LAT": "38.273069", "ICON": "Union.bmp" }, "geometry": { "type": "Point", "coordinates": [ -77.419973, 38.273069 ] } },
{ "type": "Feature", "properties": { "Name": "Thompson", "description": null, "IMAGE": "20lb Parrott Rifle.jpg", "LONG": "-77.419682", "Field": "Value", "LAT": "38.27135", "ICON": "Union.bmp" }, "geometry": { "type": "Point", "coordinates": [ -77.419682, 38.27135 ] } },
{ "type": "Feature", "properties": { "Name": "Amsden", "description": null, "IMAGE": "20lb Parrott Rifle.jpg", "LONG": "-77.418613", "Field": "Value", "LAT": "38.269823", "ICON": "Union.bmp" }, "geometry": { "type": "Point", "coordinates": [ -77.418613, 38.269823 ] } },
{ "type": "Feature", "properties": { "Name": "Ricketts2", "description": null, "IMAGE": "3in Ordnance Rifle.jpg", "LONG": "-77.41837", "Field": "Value", "LAT": "38.264743", "ICON": "Union.bmp" }, "geometry": { "type": "Point", "coordinates": [ -77.41837, 38.264743 ] } },
{ "type": "Feature", "properties": { "Name": "Cowan2", "description": null, "IMAGE": "3in Ordnance Rifle.jpg", "LONG": "-77.417641", "Field": "Value", "LAT": "38.263903", "ICON": "Union.bmp" }, "geometry": { "type": "Point", "coordinates": [ -77.417641, 38.263903 ] } },
{ "type": "Feature", "properties": { "Name": "Reynolds2", "description": null, "IMAGE": "3in Ordnance Rifle.jpg", "LONG": "-77.416961", "Field": "Value", "LAT": "38.262948", "ICON": "Union.bmp" }, "geometry": { "type": "Point", "coordinates": [ -77.416961, 38.262948 ] } },
{ "type": "Feature", "properties": { "Name": "Taft2", "description": null, "IMAGE": "3in Ordnance Rifle.jpg", "LONG": "-77.416281", "Field": "Value", "LAT": "38.261993", "ICON": "Union.bmp" }, "geometry": { "type": "Point", "coordinates": [ -77.416281, 38.261993 ] } },
{ "type": "Feature", "properties": { "Name": "Tete Du Pont", "description": null, "IMAGE": "3in Ordnance Rifle.jpg", "LONG": "-77.445676", "Field": "Value", "LAT": "38.277958", "ICON": "Union.bmp" }, "geometry": { "type": "Point", "coordinates": [ -77.445676, 38.277958 ] } },
{ "type": "Feature", "properties": { "Name": "Reynolds2", "description": null, "IMAGE": "3in Ordnance Rifle.jpg", "LONG": "-77.426192", "Field": "Value", "LAT": "38.255347", "ICON": "Union.bmp" }, "geometry": { "type": "Point", "coordinates": [ -77.426192, 38.255347 ] } },
{ "type": "Feature", "properties": { "Name": "Stewart", "description": null, "IMAGE": "3in Ordnance Rifle.jpg", "LONG": "-77.428573", "Field": "Value", "LAT": "38.255003", "ICON": "Union.bmp" }, "geometry": { "type": "Point", "coordinates": [ -77.428573, 38.255003 ] } },
{ "type": "Feature", "properties": { "Name": "Simpson", "description": null, "IMAGE": "3in Ordnance Rifle.jpg", "LONG": "-77.433286", "Field": "Value", "LAT": "38.256225", "ICON": "Union.bmp" }, "geometry": { "type": "Point", "coordinates": [ -77.433286, 38.256225 ] } },
{ "type": "Feature", "properties": { "Name": "Walcott", "description": null, "IMAGE": "3in Ordnance Rifle.jpg", "LONG": "-77.431732", "Field": "Value", "LAT": "38.258708", "ICON": "Union.bmp" }, "geometry": { "type": "Point", "coordinates": [ -77.431732, 38.258708 ] } },
{ "type": "Feature", "properties": { "Name": "Gerrish", "description": null, "IMAGE": "3in Ordnance Rifle.jpg", "LONG": "-77.424832", "Field": "Value", "LAT": "38.255996", "ICON": "Union.bmp" }, "geometry": { "type": "Point", "coordinates": [ -77.424832, 38.255996 ] } },
{ "type": "Feature", "properties": { "Name": "Walcott2", "description": null, "IMAGE": "3in Ordnance Rifle.jpg", "LONG": "-77.427553", "Field": "Value", "LAT": "38.263788", "ICON": "Union.bmp" }, "geometry": { "type": "Point", "coordinates": [ -77.427553, 38.263788 ] } },
{ "type": "Feature", "properties": { "Name": "Randolph", "description": null, "IMAGE": "3in Ordnance Rifle.jpg", "LONG": "-77.442421", "Field": "Value", "LAT": "38.264017", "ICON": "Union.bmp" }, "geometry": { "type": "Point", "coordinates": [ -77.442421, 38.264017 ] } },
{ "type": "Feature", "properties": { "Name": "Seeley", "description": null, "IMAGE": "3in Ordnance Rifle.jpg", "LONG": "-77.443053", "Field": "Value", "LAT": "38.265545", "ICON": "Union.bmp" }, "geometry": { "type": "Point", "coordinates": [ -77.443053, 38.265545 ] } },
{ "type": "Feature", "properties": { "Name": "Snow", "description": null, "IMAGE": "3in Ordnance Rifle.jpg", "LONG": "-77.445531", "Field": "Value", "LAT": "38.267798", "ICON": "Union.bmp" }, "geometry": { "type": "Point", "coordinates": [ -77.445531, 38.267798 ] } },
{ "type": "Feature", "properties": { "Name": "Clark", "description": null, "IMAGE": "3in Ordnance Rifle.jpg", "LONG": "-77.44728", "Field": "Value", "LAT": "38.269555", "ICON": "Union.bmp" }, "geometry": { "type": "Point", "coordinates": [ -77.44728, 38.269555 ] } },
{ "type": "Feature", "properties": { "Name": "McCarthy", "description": null, "IMAGE": "3in Ordnance Rifle.jpg", "LONG": "-77.449077", "Field": "Value", "LAT": "38.271312", "ICON": "Union.bmp" }, "geometry": { "type": "Point", "coordinates": [ -77.449077, 38.271312 ] } },
{ "type": "Feature", "properties": { "Name": "Hall", "description": null, "IMAGE": "3in Ordnance Rifle.jpg", "LONG": "-77.441012", "Field": "Value", "LAT": "38.26035", "ICON": "Union.bmp" }, "geometry": { "type": "Point", "coordinates": [ -77.441012, 38.26035 ] } },
{ "type": "Feature", "properties": { "Name": "Gregg", "description": null, "IMAGE": "3in Ordnance Rifle.jpg", "LONG": "-77.437951", "Field": "Value", "LAT": "38.259396", "ICON": "Union.bmp" }, "geometry": { "type": "Point", "coordinates": [ -77.437951, 38.259396 ] } },
{ "type": "Feature", "properties": { "Name": "Gibbon", "description": null, "IMAGE": "3in Ordnance Rifle.jpg", "LONG": "-77.437756", "Field": "Value", "LAT": "38.260771", "ICON": "Union.bmp" }, "geometry": { "type": "Point", "coordinates": [ -77.437756, 38.260771 ] } },
{ "type": "Feature", "properties": { "Name": "Ayres", "description": null, "IMAGE": "3in Ordnance Rifle.jpg", "LONG": "-77.453985", "Field": "Value", "LAT": "38.276812", "ICON": "Union.bmp" }, "geometry": { "type": "Point", "coordinates": [ -77.453985, 38.276812 ] } },
{ "type": "Feature", "properties": { "Name": "Williston", "description": null, "IMAGE": "3in Ordnance Rifle.jpg", "LONG": "-77.454714", "Field": "Value", "LAT": "38.278034", "ICON": "Union.bmp" }, "geometry": { "type": "Point", "coordinates": [ -77.454714, 38.278034 ] } },
{ "type": "Feature", "properties": { "Name": "Hexamer", "description": null, "IMAGE": "3in Ordnance Rifle.jpg", "LONG": "-77.451021", "Field": "Value", "LAT": "38.283993", "ICON": "Union.bmp" }, "geometry": { "type": "Point", "coordinates": [ -77.451021, 38.283993 ] } },
{ "type": "Feature", "properties": { "Name": "Ransom", "description": null, "IMAGE": "3in Ordnance Rifle.jpg", "LONG": "-77.440818", "Field": "Value", "LAT": "38.284527", "ICON": "Union.bmp" }, "geometry": { "type": "Point", "coordinates": [ -77.440818, 38.284527 ] } },
{ "type": "Feature", "properties": { "Name": "Amsden", "description": null, "IMAGE": "3in Ordnance Rifle.jpg", "LONG": "-77.441644", "Field": "Value", "LAT": "38.285177", "ICON": "Union.bmp" }, "geometry": { "type": "Point", "coordinates": [ -77.441644, 38.285177 ] } },
{ "type": "Feature", "properties": { "Name": "Ricketts", "description": null, "IMAGE": "3in Ordnance Rifle.jpg", "LONG": "-77.442615", "Field": "Value", "LAT": "38.285788", "ICON": "Union.bmp" }, "geometry": { "type": "Point", "coordinates": [ -77.442615, 38.285788 ] } },
{ "type": "Feature", "properties": { "Name": "Hall", "description": null, "IMAGE": "10lb Parrott Rifle.jpg", "LONG": "-77.437854", "Field": "Value", "LAT": "38.288882", "ICON": "Union.bmp" }, "geometry": { "type": "Point", "coordinates": [ -77.437854, 38.288882 ] } },
{ "type": "Feature", "properties": { "Name": "Cooper", "description": null, "IMAGE": "3in Ordnance Rifle.jpg", "LONG": "-77.43659", "Field": "Value", "LAT": "38.256569", "ICON": "Union.bmp" }, "geometry": { "type": "Point", "coordinates": [ -77.43659, 38.256569 ] } },
{ "type": "Feature", "properties": { "Name": "Cowan", "description": null, "IMAGE": "3in Ordnance Rifle.jpg", "LONG": "-77.44349", "Field": "Value", "LAT": "38.286513", "ICON": "Union.bmp" }, "geometry": { "type": "Point", "coordinates": [ -77.44349, 38.286513 ] } },
{ "type": "Feature", "properties": { "Name": "Benjamin", "description": null, "IMAGE": "12lb  Napoleon.jpg", "LONG": "-77.4827", "Field": "Value", "LAT": "38.326312", "ICON": "Union.bmp" }, "geometry": { "type": "Point", "coordinates": [ -77.4827, 38.326312 ] } },
{ "type": "Feature", "properties": { "Name": "Benjamin", "description": null, "IMAGE": "12lb  Napoleon.jpg", "LONG": "-77.487122", "Field": "Value", "LAT": "38.325472", "ICON": "Union.bmp" }, "geometry": { "type": "Point", "coordinates": [ -77.487122, 38.325472 ] } },
{ "type": "Feature", "properties": { "Name": "King", "description": null, "IMAGE": "12lb  Napoleon.jpg", "LONG": "-77.479834", "Field": "Value", "LAT": "38.324249", "ICON": "Union.bmp" }, "geometry": { "type": "Point", "coordinates": [ -77.479834, 38.324249 ] } },
{ "type": "Feature", "properties": { "Name": "Owen", "description": null, "IMAGE": "12lb  Napoleon.jpg", "LONG": "-77.47823", "Field": "Value", "LAT": "38.323638", "ICON": "Union.bmp" }, "geometry": { "type": "Point", "coordinates": [ -77.47823, 38.323638 ] } },
{ "type": "Feature", "properties": { "Name": "Bormer", "description": null, "IMAGE": "12lb  Napoleon.jpg", "LONG": "-77.476238", "Field": "Value", "LAT": "38.323944", "ICON": "Union.bmp" }, "geometry": { "type": "Point", "coordinates": [ -77.476238, 38.323944 ] } },
{ "type": "Feature", "properties": { "Name": "Smith", "description": null, "IMAGE": "12lb  Napoleon.jpg", "LONG": "-77.46103", "Field": "Value", "LAT": "38.316076", "ICON": "Union.bmp" }, "geometry": { "type": "Point", "coordinates": [ -77.46103, 38.316076 ] } }
]
}
